{"1337966":{"name":"McDonald's","address":{"address_country":null,"address_locality":"Bronx","address_region":"NY","postal_code":"10467","street_address":"3509 Webster Ave","latitude":"40.87911987","longitude":"-73.87172699"}},"1338153":{"name":"McDonald's","address":{"address_country":null,"address_locality":"Bronx","address_region":"NY","postal_code":"10458","street_address":"2505 Southern Blvd","latitude":"40.85644531","longitude":"-73.88118744"}},"1338374":{"name":"McDonald's","address":{"address_country":null,"address_locality":"Bronx","address_region":"NY","postal_code":"10468","street_address":"2630 Jerome Ave","latitude":"40.8669815","longitude":"-73.89737702"}},"1339152":{"name":"McDonald's","address":{"address_country":null,"address_locality":"Bronx","address_region":"NY","postal_code":"10457","street_address":"1625 Webster Ave","latitude":"40.84178543","longitude":"-73.90473938"}},"1339326":{"name":"McDonald's","address":{"address_country":null,"address_locality":"Bronx","address_region":"NY","postal_code":"10466","street_address":"4174 White Plains Rd","latitude":"40.8927536","longitude":"-73.85741425"}},"1339395":{"name":"McDonald's","address":{"address_country":null,"address_locality":"Bronx","address_region":"NY","postal_code":"10457","street_address":"599 E Tremont Ave","latitude":"40.8467102","longitude":"-73.89342499"}},"1339400":{"name":"McDonald's","address":{"address_country":null,"address_locality":"Bronx","address_region":"NY","postal_code":"10453","street_address":"1745 University Ave","latitude":"40.85028457","longitude":"-73.91628266"}},"1339427":{"name":"McDonald's","address":{"address_country":null,"address_locality":"Bronx","address_region":"NY","postal_code":"10467","street_address":"2516 White Plains Rd","latitude":"40.864048","longitude":"-73.86703492"}},"1339928":{"name":"McDonald's","address":{"address_country":null,"address_locality":"Bronx","address_region":"NY","postal_code":"10467","street_address":"300 E 204th St","latitude":"40.87283706","longitude":"-73.87882233"}},"1447495":{"name":"McDonald's","address":{"address_country":null,"address_locality":"Bronx","address_region":"NY","postal_code":"10463","street_address":"5765 Broadway","latitude":"40.88409423","longitude":"-73.90167237"}},"3135370":{"name":"McDonald's","address":{"address_country":null,"address_locality":"BRONX","address_region":"NY","postal_code":"10468","street_address":"36 W Fordham Rd","latitude":"40.8624916","longitude":"-73.90289307"}},"3135379":{"name":"McDonald's","address":{"address_country":null,"address_locality":"BRONX","address_region":"NY","postal_code":"10452","street_address":"101 E 170th St","latitude":"40.8397026","longitude":"-73.91554261"}},"3135467":{"name":"McDonald's","address":{"address_country":null,"address_locality":"BRONX","address_region":"NY","postal_code":"10453","street_address":"2065 Jerome Ave","latitude":"40.85431671","longitude":"-73.90727997"}},"3135469":{"name":"McDonald's","address":{"address_country":null,"address_locality":"BRONX","address_region":"NY","postal_code":"10458","street_address":"372 E Fordham Rd","latitude":"40.86158752","longitude":"-73.89247132"}},"3136100":{"name":"McDonald's","address":{"address_country":null,"address_locality":"BRONX","address_region":"NY","postal_code":"10452","street_address":"1 W Mount Eden Ave","latitude":"40.84468841","longitude":"-73.9149704"}}}